{
  "NYC": {
    "name": "NYC",
    "lat": 40.7127281,
    "lon": -74.0060152,
    "tz": "America/New_York",
    "discovered_at": "2026-03-29T15:43:40.430888"
  },
  "Mexico City": {
    "name": "Mexico City",
    "lat": 19.3207722,
    "lon": -99.1514678,
    "tz": "America/Mexico_City",
    "discovered_at": "2026-03-30T09:09:05.561150"
  },
  "Moscow": {
    "name": "莫斯科",
    "lat": 55.625578,
    "lon": 37.6063916,
    "tz": "Europe/Moscow",
    "discovered_at": "2026-03-30T09:09:04.809980"
  },
  "Busan": {
    "name": "釜山廣域市",
    "lat": 35.1799528,
    "lon": 129.0752365,
    "tz": "Asia/Seoul",
    "discovered_at": "2026-04-06T10:13:17.764398"
  },
  "Amsterdam": {
    "name": "阿姆斯特丹",
    "lat": 52.3730796,
    "lon": 4.8924534,
    "tz": "Europe/Amsterdam",
    "discovered_at": "2026-04-06T10:13:20.508863"
  },
  "Helsinki": {
    "name": "赫尔辛基",
    "lat": 60.1666204,
    "lon": 24.9435408,
    "tz": "Europe/Helsinki",
    "discovered_at": "2026-04-06T10:13:23.325624"
  },
  "Panama City": {
    "name": "Panama City",
    "lat": 30.1586518,
    "lon": -85.6602936,
    "tz": "America/Chicago",
    "discovered_at": "2026-04-06T10:13:26.004957"
  },
  "Kuala Lumpur": {
    "name": "吉隆坡",
    "lat": 3.1516964,
    "lon": 101.6942371,
    "tz": "Asia/Kuala_Lumpur",
    "discovered_at": "2026-04-06T10:13:28.449354"
  },
  "Jakarta": {
    "name": "雅加达首都特区",
    "lat": -6.1754049,
    "lon": 106.827168,
    "tz": "Asia/Jakarta",
    "discovered_at": "2026-04-06T10:13:31.846768"
  }
}